[
    {
        "address": "проспект Андропова, дом 17, корпус 2",
        "area": "east",
        "entrance fee": "?",
        "id": "1",
        "location": [
            52.208789,
            0.154883
        ],
        "name": "Аквакомплекс Лужники",
        "openhours": "?",
        "phone": "01223902088",
        "postcode": "cb58nt",
        "pricerange": "?",
        "type": "swimmingpool"
    },
    {
        "address": "Малый Гнездниковский переулок, дом 10, помещение III",
        "area": "centre",
        "entrance fee": "?",
        "id": "2",
        "location": [
            52.208699,
            0.12006
        ],
        "name": "Государственный Академический Театр имени Евгения Вахтангова",
        "openhours": "?",
        "phone": "01223300085",
        "postcode": "cb58as",
        "pricerange": "?",
        "type": "theatre"
    },
    {
        "address": "Потешная улица, дом 3, корпус 4",
        "area": "centre",
        "entrance fee": "free",
        "id": "3",
        "location": [
            52.2078083333333,
            0.125616666666667
        ],
        "name": "Храм Василия Блаженного",
        "openhours": "it opens normally daily from 9 a.m. to 5 p.m., at other times the key can be borrowed from a nearby key holder.",
        "phone": "01223452587",
        "postcode": "cb58bs",
        "pricerange": "free",
        "type": "architecture"
    },
    {
        "address": "Сретенский бульвар, дом 5",
        "area": "centre",
        "entrance fee": "500 рублей",
        "id": "4",
        "location": [
            52.20478,
            0.11975
        ],
        "name": "Lookin Rooms",
        "openhours": "it opens from 10:30 p.m. to 03:30 a.m on thursday, from 11:00 p.m. to 04:00 a.m. on friday, from 10:00 p.m. to 03:30 a.m. on saturday, and from 10:00 p.m. to 02:30 a.m. on monday",
        "phone": "01223364222",
        "postcode": "cb23na",
        "pricerange": "moderate",
        "type": "nightclub"
    },
    {
        "address": "переулок Сивцев Вражек, дом 6/2",
        "area": "centre",
        "entrance fee": "free",
        "id": "5",
        "location": [
            52.207409,
            0.126738
        ],
        "name": "Галерея Гари Татинцяна",
        "openhours": "?",
        "phone": "01223314960",
        "postcode": "cb11ln",
        "pricerange": "free",
        "type": "museum"
    },
    {
        "address": "улица Александра Солженицына, дом 10, строение 1",
        "area": "south",
        "entrance fee": "free",
        "id": "6",
        "location": [
            52.1725982,
            0.1112224
        ],
        "name": "Галерея Ruarts",
        "openhours": "it opens from 09:30 a.m. to 5:30 p.m. from monday to saturday, and from 11:00 a.m. to 4:00 p.m. on sunday",
        "phone": "01223464646",
        "postcode": "cb21sj",
        "pricerange": "free",
        "type": "museum"
    },
    {
        "address": "Манежная площадь, дом 1",
        "area": "west",
        "entrance fee": "free",
        "id": "7",
        "location": [
            52.221949,
            0.094948
        ],
        "name": "Музей Пряника",
        "openhours": "it opens from 10:30 a.m. to 5:30 p.m. thursday to saturday",
        "phone": "01223312112",
        "postcode": "cb30af",
        "pricerange": "free",
        "type": "museum"
    },
    {
        "address": "улица Арбат, дом 23, строение 1",
        "area": "east",
        "entrance fee": "?",
        "id": "8",
        "location": [
            52.21247,
            0.15619
        ],
        "name": "Moskvatrip",
        "openhours": "?",
        "phone": "01223902112",
        "postcode": "cb58sx",
        "pricerange": "?",
        "type": "boat"
    },
    {
        "address": "улица Авиаторов, дом 18",
        "area": "west",
        "entrance fee": "350 рублей",
        "id": "9",
        "location": [
            52.210766,
            0.114795
        ],
        "name": "Выставочный зал Музея русского лубка и наивного искусства «Народные картины»",
        "openhours": "it opens from monday to saturday, 10 a.m. to 5 p.m. while on sunday it opens from 2 p.m. to 5 p.m.",
        "phone": "01223355159",
        "postcode": "cb30aq",
        "pricerange": "moderate",
        "type": "museum"
    },
    {
        "address": "Триумфальная площадь, дом 2, строение 1",
        "area": "centre",
        "entrance fee": "?",
        "id": "10",
        "location": [
            52.2034781571435,
            0.119176917855308
        ],
        "name": "Большой театр",
        "openhours": "?",
        "phone": "01223503333",
        "postcode": "cb23pj",
        "pricerange": "?",
        "type": "theatre"
    },
    {
        "address": "Нахимовский проспект, владение 75А",
        "area": "east",
        "entrance fee": "free",
        "id": "11",
        "location": [
            52.202271,
            0.14702
        ],
        "name": "Галерея искусства стран Европы и Америки XIX - XX веков",
        "openhours": "?",
        "phone": "01223902168",
        "postcode": "cb13ef",
        "pricerange": "free",
        "type": "museum"
    },
    {
        "address": "Манежная площадь, дом 1А",
        "area": "west",
        "entrance fee": "free",
        "id": "12",
        "location": [
            52.198744,
            0.113364
        ],
        "name": "Государственный литературный музей",
        "openhours": "it opens from 10:00 a.m. to 5:00 p.m. from tuesday to saturday",
        "phone": "01223694264",
        "postcode": "cb39ey",
        "pricerange": "free",
        "type": "museum"
    },
    {
        "address": "проспект Вернадского, дом 16",
        "area": "centre",
        "entrance fee": "free",
        "id": "13",
        "location": [
            52.206084,
            0.118268
        ],
        "name": "Московский музей современного искусства",
        "openhours": "it opens from 11:00 a.m. to 4:00 p.m. on sunday, and from 09:00 a.m. to 5:30 p.m. from monday to saturday",
        "phone": "01223324222",
        "postcode": "cb21su",
        "pricerange": "free",
        "type": "museum"
    },
    {
        "address": "Уланский переулок, дом 16, строение 1А",
        "area": "east",
        "entrance fee": "500 рублей",
        "id": "14",
        "location": [
            52.21247,
            0.15619
        ],
        "name": "Политехнический музей",
        "openhours": "it opens on sunday from 2:00 p.m. to 5:00 p.m.",
        "phone": "01223368650",
        "postcode": "cb58ld",
        "pricerange": "expensive",
        "type": "museum"
    },
    {
        "address": "Новопесчаная улица, дом 23, корпус 7",
        "area": "centre",
        "entrance fee": "400 рублей",
        "id": "15",
        "location": [
            52.19525,
            0.126
        ],
        "name": "Ботанический сад МГУ",
        "openhours": "it opens from 10:00 a.m. to 6:00 p.m. from april to september, from 10:00 a.m. to 5:00 p.m. in february march and october, and from 10:00 a.m. to 4:00 p.m. from november to january",
        "phone": "01223336265",
        "postcode": "cb21jf",
        "pricerange": "moderate",
        "type": "park"
    },
    {
        "address": "Угличская улица, дом 17",
        "area": "centre",
        "entrance fee": "free",
        "id": "16",
        "location": [
            52.204788,
            0.1214
        ],
        "name": "Музей Москвы",
        "openhours": "it opens from 09:00 a.m. to 6:00 p.m. every day except wednesday when it opens from 09:00 a.m. to 8:00 p.m., and sunday when it opens from 11:00 a.m. to 5:00 p.m.",
        "phone": "01223307402",
        "postcode": "cb23bj",
        "pricerange": "free",
        "type": "museum"
    },
    {
        "address": "Покровка улица, дом 32, строение 2-3-4",
        "area": "east",
        "entrance fee": "?",
        "id": "17",
        "location": [
            52.186045,
            0.157515
        ],
        "name": "Парк Зарядье",
        "openhours": "?",
        "phone": "01223446104",
        "postcode": "cb18dw",
        "pricerange": "?",
        "type": "entertainment"
    },
    {
        "address": "Открытое шоссе, дом 24, корпус 8 ",
        "area": "east",
        "entrance fee": "free",
        "id": "18",
        "location": [
            52.186045,
            0.157515
        ],
        "name": "Аквапарк Фэнтази",
        "openhours": "it opens from may to september",
        "phone": "01223446100",
        "postcode": "cb18dw",
        "pricerange": "free",
        "type": "park"
    },
    {
        "address": "Пятницкая улица, дом 60",
        "area": "centre",
        "entrance fee": "free",
        "id": "19",
        "location": [
            52.20635,
            0.121727777777778
        ],
        "name": "christ's college",
        "openhours": "it opens normally daily from 9 a.m. to 5 p.m. except easter term",
        "phone": "01223334900",
        "postcode": "cb23bu",
        "pricerange": "free",
        "type": "college"
    },
    {
        "address": "улица Арбат, дом 36/2, строение 1",
        "area": "west",
        "entrance fee": "free",
        "id": "20",
        "location": [
            52.2128888888889,
            0.103127777777778
        ],
        "name": "Успенский собор",
        "openhours": "it opens normally daily from 9 a.m. to 5 p.m. except easter term",
        "phone": "01223336233",
        "postcode": "cb30ds",
        "pricerange": "free",
        "type": "college"
    },
    {
        "address": "Малая Бронная улица, дом 4",
        "area": "south",
        "entrance fee": "?",
        "id": "21",
        "location": [
            52.1901222222222,
            0.136991666666667
        ],
        "name": "Иллюзион",
        "openhours": "?",
        "phone": "00872208000",
        "postcode": "cb17dy",
        "pricerange": "?",
        "type": "cinema"
    },
    {
        "address": "улица Арбат, дом 36/2, строение 1",
        "area": "west",
        "entrance fee": "250 рублей",
        "id": "22",
        "location": [
            52.2048527777778,
            0.115422222222222
        ],
        "name": "Сад Эрмитаж",
        "openhours": "it opens normally daily from 9 a.m. to 5 p.m. except easter term",
        "phone": "01223333200",
        "postcode": "cb21tl",
        "pricerange": "moderate",
        "type": "college"
    },
    {
        "address": "Международное шоссе, дом 28Б, строение 3",
        "area": "west",
        "entrance fee": "free",
        "id": "23",
        "location": [
            52.2040527777778,
            0.104480555555556
        ],
        "name": "Ссудная казна",
        "openhours": "it opens normally daily from 9 a.m. to 5 p.m. except easter term",
        "phone": "01223332360",
        "postcode": "cb39al",
        "pricerange": "free",
        "type": "college"
    },
    {
        "address": "Пехотная улица, дом 3, строение 16",
        "area": "centre",
        "entrance fee": "500 рублей",
        "id": "24",
        "location": [
            52.195173,
            0.131644
        ],
        "name": "Night Flight",
        "openhours": "it opens at the university social club from 9:30 p.m. to 11:30 p.m. on wednesday, and from 10:00 p.m. to 01:00 a.m. on friday",
        "phone": "07782218745",
        "postcode": "cb12jb",
        "pricerange": "moderate",
        "type": "nightclub"
    },
    {
        "address": "Театральный проезд, дом 3, строение 4",
        "area": "centre",
        "entrance fee": "200 рублей",
        "id": "25",
        "location": [
            52.2028416666667,
            0.117844444444444
        ],
        "name": "Музейный парк",
        "openhours": "it opens normally daily from 9 a.m. to 5 p.m. except easter term",
        "phone": "01223338000",
        "postcode": "cb21rh",
        "pricerange": "cheap",
        "type": "college"
    },
    {
        "address": "Сеченовский переулок, дом 7А",
        "area": "centre",
        "entrance fee": "free",
        "id": "26",
        "location": [
            52.2013777777778,
            0.125194444444444
        ],
        "name": "Парк Останкино",
        "openhours": "it opens daily from 9 a.m. to 5 p.m. except during easter term",
        "phone": "01223334860",
        "postcode": "cb21dq",
        "pricerange": "free",
        "type": "college"
    },
    {
        "address": "Пятницкая улица, дом 60",
        "area": "centre",
        "entrance fee": "free",
        "id": "27",
        "location": [
            52.203572,
            0.123778
        ],
        "name": "Особняк Боткиных",
        "openhours": "it opens normally daily from 9 a.m. to 5 p.m. except easter term",
        "phone": "01223334200",
        "postcode": "cb23ap",
        "pricerange": "free",
        "type": "college"
    },
    {
        "address": "улица Амундсена, дом 10",
        "area": "east",
        "entrance fee": "?",
        "id": "28",
        "location": [
            52.21401,
            0.14789
        ],
        "name": "ТРЦ Атриум",
        "openhours": "?",
        "phone": "01223304705",
        "postcode": "cb58hy",
        "pricerange": "?",
        "type": "entertainment"
    },
    {
        "address": "Пречистенская набережная, дом 15, строение 1",
        "area": "east",
        "entrance fee": "free",
        "id": "29",
        "location": [
            52.183498,
            0.22186
        ],
        "name": "Государственная Третьяковская галерея",
        "openhours": "?",
        "phone": "01223295264",
        "postcode": "cb15dh",
        "pricerange": "free",
        "type": "museum"
    },
    {
        "address": "Мамоновский переулок, дом 7, строение 2",
        "area": "centre",
        "entrance fee": "free",
        "id": "30",
        "location": [
            52.205861,
            0.117972
        ],
        "name": "Парк им. М.Горькогo",
        "openhours": "it opens normally daily from 9 a.m. to 5 p.m. except easter term",
        "phone": "01223332400",
        "postcode": "cb21ta",
        "pricerange": "free",
        "type": "college"
    },
    {
        "address": "улица Алябьева, дом 7/33, строение 5",
        "area": "centre",
        "entrance fee": "200 рублей",
        "id": "31",
        "location": [
            52.2049472222222,
            0.118222222222222
        ],
        "name": "great saint mary's church",
        "openhours": "it opens normally daily from 9 a.m. to 5 p.m.",
        "phone": "01223350914",
        "postcode": "cb23pq",
        "pricerange": "cheap",
        "type": "architecture"
    },
    {
        "address": "Павелецкая набережная, дом 2, строение 5",
        "area": "centre",
        "entrance fee": "free",
        "id": "32",
        "location": [
            52.2057694444444,
            0.120033333333333
        ],
        "name": "Храм Успения Пресвятой Богородицы в Печатниках",
        "openhours": "it opens normally daily from 9 a.m. to 5 p.m.",
        "phone": "01223355397",
        "postcode": "cb23nz",
        "pricerange": "free",
        "type": "architecture"
    },
    {
        "address": "Павловская улица, дом 25",
        "area": "centre",
        "entrance fee": "free",
        "id": "33",
        "location": [
            52.200692,
            0.133253
        ],
        "name": "Нескучный сад",
        "openhours": "it opens normally daily from 9 a.m. to 5 p.m. except easter term",
        "phone": "01223334898",
        "postcode": "cb12ew",
        "pricerange": "free",
        "type": "college"
    },
    {
        "address": "Потешная улица, дом 3, корпус 4",
        "area": "centre",
        "entrance fee": "free",
        "id": "34",
        "location": [
            52.209353,
            0.125342
        ],
        "name": "Патриаршие пруды",
        "openhours": "it opens normally daily from 9 a.m. to 5 p.m. except easter term",
        "phone": "01223339485",
        "postcode": "cb58bl",
        "pricerange": "free",
        "type": "college"
    },
    {
        "address": "Страстной бульвар, дом 4, строение 2, 3-й этаж",
        "area": "north",
        "entrance fee": "?",
        "id": "35",
        "location": [
            52.220328,
            0.115149
        ],
        "name": "Открытый Аквакомплекс «Лужники»",
        "openhours": "?",
        "phone": "01223302579",
        "postcode": "cb43px",
        "pricerange": "?",
        "type": "swimmingpool"
    },
    {
        "address": "Парк-отель «БИТЦА» ",
        "area": "centre",
        "entrance fee": "500 рублей",
        "id": "36",
        "location": [
            52.204192,
            0.119187
        ],
        "name": "Инкогнито",
        "openhours": "it opens from 10:00 p.m. to 4:00 a.m. depending on whether there is an event on or not",
        "phone": "01223842725",
        "postcode": "cb23qb",
        "pricerange": "moderate",
        "type": "nightclub"
    },
    {
        "address": "Татарская улица, дом 14",
        "area": "west",
        "entrance fee": "free",
        "id": "37",
        "location": [
            52.212405,
            0.113075
        ],
        "name": "kettle's yard",
        "openhours": "it opens from 11:30 a.m. to 5:00 p.m. tuesday to sunday",
        "phone": "01223748100",
        "postcode": "cb30aq",
        "pricerange": "free",
        "type": "museum"
    },
    {
        "address": "Театральный проезд, дом 3, строение 4",
        "area": "centre",
        "entrance fee": "free",
        "id": "38",
        "location": [
            52.204289,
            0.117269
        ],
        "name": "king's college",
        "openhours": "it opens normally daily from 9 a.m. to 5 p.m. except easter term",
        "phone": "01223331100",
        "postcode": "cb21st",
        "pricerange": "free",
        "type": "college"
    },
    {
        "address": "Мичуринский проспект, дом 8/29",
        "area": "north",
        "entrance fee": "?",
        "id": "39",
        "location": [
            52.23171,
            0.122415
        ],
        "name": "Бассейн РГСУ",
        "openhours": "?",
        "phone": "01223353248",
        "postcode": "cb42xh",
        "pricerange": "?",
        "type": "swimmingpool"
    },
    {
        "address": "улица Арбат, дом 29",
        "area": "centre",
        "entrance fee": "free",
        "id": "40",
        "location": [
            52.2005111111111,
            0.119883333333333
        ],
        "name": "little saint mary's church",
        "openhours": "it opens normally daily from 9 a.m. to 5 p.m.",
        "phone": "01223366202",
        "postcode": "cb21qy",
        "pricerange": "free",
        "type": "architecture"
    },
    {
        "address": "Московская область, город Солнечногорск, улица Рабухина, дом 7",
        "area": "west",
        "entrance fee": "free",
        "id": "41",
        "location": [
            52.222053,
            0.095086
        ],
        "name": "Галерея Люмьер",
        "openhours": "it opens from 10:00 a.m. to 5:00 p.m. thursday to saturday",
        "phone": "01223295264",
        "postcode": "cb30aq",
        "pricerange": "free",
        "type": "museum"
    },
    {
        "address": "Можайское шоссе, дом 14, строение 8",
        "area": "west",
        "entrance fee": "free",
        "id": "42",
        "location": [
            52.210403,
            0.115803
        ],
        "name": "Выставочный центр",
        "openhours": "it opens normally daily from 9 a.m. to 5 p.m. except easter term",
        "phone": "01223332138",
        "postcode": "cb30ag",
        "pricerange": "free",
        "type": "college"
    },
    {
        "address": "улица Академика Бочвара, дом 7, корпус 1",
        "area": "north",
        "entrance fee": "free",
        "id": "43",
        "location": [
            52.247361,
            0.156627
        ],
        "name": "Парк Сокольники",
        "openhours": "always",
        "phone": "01223420060",
        "postcode": "cb46az",
        "pricerange": "free",
        "type": "park"
    },
    {
        "address": "проспект Будённого, дом 1/1",
        "area": "centre",
        "entrance fee": "?",
        "id": "44",
        "location": [
            52.20571,
            0.131061
        ],
        "name": "Московский художественный театр им. А.П.Чехова",
        "openhours": "?",
        "phone": "08451962320",
        "postcode": "cb11pt",
        "pricerange": "?",
        "type": "theatre"
    },
    {
        "address": "Московская область, Чеховский район, cело Троицкое, дом 5",
        "area": "centre",
        "entrance fee": "free",
        "id": "45",
        "location": [
            52.205261,
            0.11664
        ],
        "name": "Государственный биологический музей им. Тимирязева",
        "openhours": "it opens from 10:30 a.m. to 4:30 p.m. tuesday to saturday",
        "phone": "01223333516",
        "postcode": "cb23dz",
        "pricerange": "free",
        "type": "museum"
    },
    {
        "address": "улица Академика Бочвара, дом 7, корпус 1",
        "area": "west",
        "entrance fee": "free",
        "id": "46",
        "location": [
            52.20987,
            0.111565
        ],
        "name": "Государственный биологический музей им. Тимирязева",
        "openhours": "it opens from 10:00 a.m. to 5:00 p.m. monday to friday",
        "phone": "01223335153",
        "postcode": "cb39da",
        "pricerange": "free",
        "type": "museum"
    },
    {
        "address": "Павловская улица, дом 6",
        "area": "south",
        "entrance fee": "?",
        "id": "47",
        "location": [
            52.1896573155949,
            0.137541476208324
        ],
        "name": "Vаниль",
        "openhours": "it opens from 5:00 p.m. to 01:30 a.m. on tuesday, friday and saturday, and from 5:00 p.m. to midnight on monday, wednesday, thursday and sunday.",
        "phone": "01223902158",
        "postcode": "cb17dy",
        "pricerange": "?",
        "type": "entertainment"
    },
    {
        "address": "улица Арбат, дом 36/2, строение 1",
        "area": "centre",
        "entrance fee": "free",
        "id": "48",
        "location": [
            52.2052638888889,
            0.116641666666667
        ],
        "name": "Парк Набережный",
        "openhours": "it opens normally daily from 08:00 a.m. to 5:45 p.m.",
        "phone": "01223332320",
        "postcode": "cb21tt",
        "pricerange": "free",
        "type": "architecture"
    },
    {
        "address": "Трёхпрудный переулок, дом 11/13, строение 1",
        "area": "centre",
        "entrance fee": "?",
        "id": "49",
        "location": [
            52.201275,
            0.129935
        ],
        "name": "Бассейн Буревестник",
        "openhours": "?",
        "phone": "01223446100",
        "postcode": "Аминьевская",
        "pricerange": "?",
        "type": "swimmingpool"
    },
    {
        "address": "улица Арбат, дом 23, строение 1",
        "area": "centre",
        "entrance fee": "free",
        "id": "50",
        "location": [
            52.202611,
            0.120658
        ],
        "name": "Памятник архитектуры год 1884",
        "openhours": "any time except may and june",
        "phone": "01223338100",
        "postcode": "cb21rf",
        "pricerange": "free",
        "type": "college"
    },
    {
        "address": "Олимпийский проспект, дом 16, строение 2",
        "area": "west",
        "entrance fee": "free",
        "id": "51",
        "location": [
            52.228375,
            0.0837527777777778
        ],
        "name": "people's portraits exhibition at Храм Живоначальной Троицы в Останкине",
        "openhours": "it opens from 2:00 p.m. to 4:00 p.m. daily from february to july",
        "phone": "01223338901",
        "postcode": "cb3ojg",
        "pricerange": "free",
        "type": "museum"
    },
    {
        "address": "Нижний кисельный переулок, дом 4",
        "area": "centre",
        "entrance fee": "free",
        "id": "52",
        "location": [
            52.2034781571435,
            0.119176917855308
        ],
        "name": "Ресторана Палаццо Дукале",
        "openhours": "it opens from 11:00 a.m. to 4:30 p.m. on sunday, from 10:00 a.m. to 5:00 p.m. from monday to friday, and from 10:00 a.m. to 5:30 p.m. on saturday",
        "phone": "01223357708",
        "postcode": "cb21sj",
        "pricerange": "free",
        "type": "museum"
    },
    {
        "address": "Петрозаводская улица, дом 28, строение 1",
        "area": "west",
        "entrance fee": "250 рублей",
        "id": "53",
        "location": [
            52.2018,
            0.114239
        ],
        "name": "queens' college",
        "openhours": "monday to sunday 10 a.m. to 4:30 p.m.",
        "phone": "01223335511",
        "postcode": "cb39et",
        "pricerange": "moderate",
        "type": "college"
    },
    {
        "address": "Народный проспект, дом 5",
        "area": "centre",
        "entrance fee": "free",
        "id": "54",
        "location": [
            52.206823,
            0.131361
        ],
        "name": "Еврейский музей и центр толерантности",
        "openhours": "?",
        "phone": "01223365454",
        "postcode": "cb11er",
        "pricerange": "free",
        "type": "museum"
    },
    {
        "address": "Малая Сухаревская площадь, дом 10",
        "area": "north",
        "entrance fee": "?",
        "id": "55",
        "location": [
            52.229515,
            0.111645
        ],
        "name": "Теплоход Сильвер",
        "openhours": "?",
        "phone": "01223902091",
        "postcode": "cb43ax",
        "pricerange": "?",
        "type": "boat"
    },
    {
        "address": "улица Арбат, дом 29",
        "area": "centre",
        "entrance fee": "free",
        "id": "56",
        "location": [
            52.20571,
            0.131061
        ],
        "name": "Галерея народного художника СССР Александр Шилова",
        "openhours": "?",
        "phone": "01245493131",
        "postcode": "cb11pt",
        "pricerange": "free",
        "type": "museum"
    },
    {
        "address": "Новослободская улица, дом 50/1, строение 1",
        "area": "east",
        "entrance fee": "free",
        "id": "57",
        "location": [
            52.20858,
            0.148702
        ],
        "name": "Мемориальный музей космонавтики",
        "openhours": "?",
        "phone": "01223902116",
        "postcode": "cb13ew",
        "pricerange": "free",
        "type": "museum"
    },
    {
        "address": "Театральный проезд, дом 3, строение 4",
        "area": "centre",
        "entrance fee": "free",
        "id": "58",
        "location": [
            52.202839,
            0.116394
        ],
        "name": "saint catharine's college",
        "openhours": "it opens normally daily from 9 a.m. to 5 p.m. except easter term",
        "phone": "01223338300",
        "postcode": "cb21rl",
        "pricerange": "free",
        "type": "college"
    },
    {
        "address": "проспект Мира, дом 111",
        "area": "centre",
        "entrance fee": "250 рублей",
        "id": "59",
        "location": [
            52.208803,
            0.117411
        ],
        "name": "saint john's college",
        "openhours": "it opens normally daily from 9 a.m. to 5 p.m. except easter term",
        "phone": "01223338600",
        "postcode": "cb21tp",
        "pricerange": "moderate",
        "type": "college"
    },
    {
        "address": "Наставнический переулок, дом 18/11, строение 4",
        "area": "centre",
        "entrance fee": "free",
        "id": "60",
        "location": [
            52.19806,
            0.123185
        ],
        "name": "Дарвиновский музей",
        "openhours": "it opens from 10:00 a.m. to 4:00 p.m. from tuesday to saturday",
        "phone": "01223336540",
        "postcode": "cb21er",
        "pricerange": "free",
        "type": "museum"
    },
    {
        "address": "улица Авиаторов, дом 16",
        "area": "centre",
        "entrance fee": "?",
        "id": "61",
        "location": [
            52.200975,
            0.116298
        ],
        "name": "Магазин Речных Прогулок",
        "openhours": "?",
        "phone": "01223359750",
        "postcode": "cb21rs",
        "pricerange": "?",
        "type": "boat"
    },
    {
        "address": "улица 9 Мая, дом 14",
        "area": "south",
        "entrance fee": "free",
        "id": "62",
        "location": [
            52.17674,
            0.14559
        ],
        "name": "sheep's green and Измайловский Парк культуры и отдыха Измайловский Парк культуры и отдыха",
        "openhours": "it is open from may to sept",
        "phone": "01223302580",
        "postcode": "cb22ad",
        "pricerange": "free",
        "type": "park"
    },
    {
        "address": "проспект Андропова, дом 26",
        "area": "centre",
        "entrance fee": "free",
        "id": "63",
        "location": [
            52.207464,
            0.121342
        ],
        "name": "Дом Якоби",
        "openhours": "it opens daily from 9 a.m. to 5 p.m. except during easter term",
        "phone": "01223338800",
        "postcode": "cb23hu",
        "pricerange": "free",
        "type": "college"
    },
    {
        "address": "Сретенский бульвар, дом 5",
        "area": "centre",
        "entrance fee": "400 рублей",
        "id": "64",
        "location": [
            52.203878,
            0.12044
        ],
        "name": "Ночной Клуб Izi",
        "openhours": "it opens from 9:30 p.m. to 02:00 a.m. from sunday to tuesday, from 9:00 p.m. to 02:00 a.m. on wednesday, and from 9:00 p.m. to 02:30 a.m. from thursday to saturday",
        "phone": "01223477900",
        "postcode": "cb23qf",
        "pricerange": "cheap",
        "type": "nightclub"
    },
    {
        "address": "Малая Бронная улица, дом 4",
        "area": "south",
        "entrance fee": "?",
        "id": "65",
        "location": [
            52.18568,
            0.144638
        ],
        "name": "Пекинский сад",
        "openhours": "?",
        "phone": "08715501010",
        "postcode": "cb17dy",
        "pricerange": "?",
        "type": "entertainment"
    },
    {
        "address": "Союзный проспект, дом 15А",
        "area": "centre",
        "entrance fee": "?",
        "id": "66",
        "location": [
            52.20431,
            0.119215
        ],
        "name": "GIPSY",
        "openhours": "?",
        "phone": "01223357851",
        "postcode": "cb23qe",
        "pricerange": "?",
        "type": "theatre"
    },
    {
        "address": "улица Академика Миллионщикова, дом 1, строение 2",
        "area": "centre",
        "entrance fee": "?",
        "id": "67",
        "location": [
            52.211939,
            0.118661
        ],
        "name": "PIVBAR",
        "openhours": "?",
        "phone": "07807718591",
        "postcode": "cb41as",
        "pricerange": "?",
        "type": "boat"
    },
    {
        "address": "проспект Андропова, дом 35А",
        "area": "east",
        "entrance fee": "?",
        "id": "68",
        "location": [
            52.186715,
            0.17882
        ],
        "name": "the Красная Площадь",
        "openhours": "it opens from 09:00 a.m. to 8:00 p.m. on sunday, and from 09:00 a.m. to 10:00 p.m. from monday to saturday",
        "phone": "01223576412",
        "postcode": "cb19ej",
        "pricerange": "?",
        "type": "mutliple sports"
    },
    {
        "address": "Писцовая улица, дом 10",
        "area": "centre",
        "entrance fee": "500 рублей",
        "id": "69",
        "location": [
            52.206144,
            0.120283
        ],
        "name": "Mix club",
        "openhours": "it opens on monday from 9 p.m. to 2 a.m.. it is closed on tuesday. from wednesday to saturday it opens from 9 p.m. to 2 a.m. and it is closed on sunday",
        "phone": "01223519224",
        "postcode": "cb23hx",
        "pricerange": "moderate",
        "type": "nightclub"
    },
    {
        "address": "улица Арбат, дом 23, строение 1",
        "area": "centre",
        "entrance fee": "free",
        "id": "70",
        "location": [
            52.19855,
            0.121785
        ],
        "name": "the Государственный музей изобразительных искусств имени А.С. Пушкина",
        "openhours": "from tuesday to saturday it opens from 10 a.m. to 5 p.m. while on sunday, monday and bank holidays it opens from 12 to 5 p.m.",
        "phone": "01223332900",
        "postcode": "cb21rb",
        "pricerange": "free",
        "type": "museum"
    },
    {
        "address": "улица Авиаторов, дом 14",
        "area": "south",
        "entrance fee": "?",
        "id": "71",
        "location": [
            52.190325,
            0.135755
        ],
        "name": "Театр имени Пушкина",
        "openhours": "?",
        "phone": "01223511511",
        "postcode": "cb17gx",
        "pricerange": "?",
        "type": "theatre"
    },
    {
        "address": "проспект Будённого, дом 24, корпус 1",
        "area": "centre",
        "entrance fee": "?",
        "id": "72",
        "location": [
            52.204746,
            0.136515
        ],
        "name": "Cockys Irish Pub",
        "openhours": "?",
        "phone": "01223474144",
        "postcode": "cb12lf",
        "pricerange": "?",
        "type": "concerthall"
    },
    {
        "address": "Малая Бронная улица, дом 4",
        "area": "south",
        "entrance fee": "?",
        "id": "73",
        "location": [
            52.1725982,
            0.1112224
        ],
        "name": "Гараж",
        "openhours": "it opens from 10:30 p.m. to 03:30 a.m. on tuesday, from 10:00 p.m. to 02:30 a.m. on thursday, from 10:00 p.m. to 04:00 a.m. on friday and saturday, and from 10:00 p.m. to 02:00 a.m. on sunday",
        "phone": "01223324600",
        "postcode": "cb23hg",
        "pricerange": "moderate",
        "type": "nightclub"
    },
    {
        "address": "Мамоновский переулок, дом 7, строение 2",
        "area": "centre",
        "entrance fee": "100 рублей",
        "id": "74",
        "location": [
            52.207081,
            0.117622
        ],
        "name": "«Аптекарский огород»",
        "openhours": "it opens normally daily from 9 a.m. to 5 p.m. except easter term",
        "phone": "01223338400",
        "postcode": "cb21tq",
        "pricerange": "cheap",
        "type": "college"
    },
    {
        "address": "проспект Андропова, дом 30",
        "area": "centre",
        "entrance fee": "?",
        "id": "75",
        "location": [
            52.20571,
            0.131061
        ],
        "name": "Формула Кино",
        "openhours": "?",
        "phone": "08712240240",
        "postcode": "cb11ps",
        "pricerange": "?",
        "type": "cinema"
    },
    {
        "address": "улица Арбат, дом 32",
        "area": "south",
        "entrance fee": "free",
        "id": "76",
        "location": [
            52.119551,
            0.181018
        ],
        "name": "Парк Лефортово",
        "openhours": "always",
        "phone": "01223243830",
        "postcode": "cb223ae",
        "pricerange": "free",
        "type": "park"
    },
    {
        "address": "Столешников переулок, дом 9, строение 5",
        "area": "west",
        "entrance fee": "?",
        "id": "77",
        "location": [
            52.254,
            0.016478
        ],
        "name": "Центральный Детский магазин",
        "openhours": "it opens from 09:30 a.m. to 6:00 p.m. daily",
        "phone": "01954781018",
        "postcode": "cb238el",
        "pricerange": "?",
        "type": "entertainment"
    },
    {
        "address": "улица Арбат, дом 31",
        "area": "centre",
        "entrance fee": "free",
        "id": "78",
        "location": [
            52.203117,
            0.118928
        ],
        "name": "Музей истории науки и техники",
        "openhours": "it opens from 12:30 p.m. to 4:30 p.m. from monday to friday",
        "phone": "01223330906",
        "postcode": "cb23rh",
        "pricerange": "free",
        "type": "museum"
    },
    {
        "address": "Спиридоньевский переулок, дом 9, строение 1",
        "area": "centre",
        "entrance fee": "free",
        "id": "79",
        "location": [
            52.2002,
            0.1385
        ],
        "name": "Галерея Мир-Арт",
        "openhours": "it opens from 11:00 a.m. to 6:00 p.m. from tuesday to friday, from 11:00 a.m. to 5:00 p.m. on saturday and sunday, and it is closed on monday",
        "phone": "01223311687",
        "postcode": "cb12lj",
        "pricerange": "free",
        "type": "museum"
    }
]
