[
    {
        "address": "Задонский проезд, дом 24, корпус 3",
        "area": "centre",
        "food": "italian",
        "id": "19210",
        "introduction": "Pizza Hut is a large chain with restaurants nationwide offering convenience pizzas pasta and salads to eat in or take away",
        "location": [
            52.20103,
            0.126023
        ],
        "name": "Pizza Hut",
        "phone": "01223323737",
        "postcode": "cb21ab",
        "pricerange": "cheap",
        "type": "restaurant"
    },
    {
        "address": "Большая Садовая улица, дом 14, строение 6",
        "area": "east",
        "food": "international",
        "id": "30650",
        "introduction": "",
        "location": [
            52.21768,
            0.224907
        ],
        "name": "Консерватория",
        "phone": "01223812660",
        "postcode": "cb259aq",
        "pricerange": "cheap",
        "signature": "african babooti",
        "type": "restaurant"
    },
    {
        "address": "Малая Бронная улица, дом 20А",
        "area": "centre",
        "food": "indian",
        "id": "19214",
        "introduction": "Бахытик serves traditional indian and bangladeshi cuisine cooked with fresh produce delivered every day",
        "location": [
            52.200187,
            0.126407
        ],
        "name": "Бахытик",
        "phone": "01223302330",
        "postcode": "cb21dp",
        "pricerange": "expensive",
        "type": "restaurant"
    },
    {
        "address": "Бутырская улица, дом 84",
        "area": "south",
        "food": "chinese",
        "id": "19192",
        "location": [
            52.188528,
            0.140627
        ],
        "name": "Китайская грамота",
        "phone": "01223244149",
        "postcode": "cb17ag",
        "pricerange": "expensive",
        "type": "restaurant"
    },
    {
        "address": "Гончарная улица, дом 9/3, строение 2",
        "area": "south",
        "food": "italian",
        "id": "19196",
        "introduction": "Pizza Hut is a large chain with restaurants nationwide offering convenience pizzas pasta and salads to eat in or take away",
        "location": [
            52.190176,
            0.13699
        ],
        "name": "Pizza Hut",
        "phone": "01223323737",
        "postcode": "cb17dy",
        "pricerange": "moderate",
        "type": "restaurant"
    },
    {
        "address": "Истринская улица, дом 8, корпус 3",
        "area": "south",
        "food": "indian",
        "id": "19191",
        "introduction": "Тадж Махал serves a variety of indian dishes to eat in or take away catering for private parties of up to 50 guests is available upon request",
        "location": [
            52.188747,
            0.138941
        ],
        "name": "Тадж Махал",
        "phone": "01223412299",
        "postcode": "cb17aa",
        "pricerange": "expensive",
        "type": "restaurant"
    },
    {
        "address": "Бибиревская улица, дом 7, корпус 1",
        "area": "south",
        "food": "modern european",
        "id": "14731",
        "introduction": "",
        "location": [
            52.18889,
            0.13589
        ],
        "name": "Steak It Easy",
        "phone": "01223413000",
        "postcode": "cb28pb",
        "pricerange": "moderate",
        "signature": "slowroast sirloin of beef red onion celeriac and garlic",
        "type": "restaurant"
    },
    {
        "address": "Малая Бронная улица, дом 20, строение 1",
        "area": "east",
        "food": "chinese",
        "id": "19273",
        "introduction": "Китайский ресторан Тан serves authentic chinese cuisine",
        "location": [
            52.212992,
            0.157569
        ],
        "name": "Китайский ресторан Тан",
        "phone": "01223248882",
        "postcode": "cb58pa",
        "pricerange": "expensive",
        "type": "restaurant"
    },
    {
        "address": "Ботаническая улица, дом 11",
        "area": "centre",
        "food": "italian",
        "id": "19240",
        "location": [
            52.205442,
            0.119706
        ],
        "name": "Osteria Mario",
        "phone": "01223352607",
        "postcode": "cb23nj",
        "pricerange": "expensive",
        "type": "restaurant"
    },
    {
        "address": "Загородное шоссе, дом 18А, строение 7",
        "area": "east",
        "food": "indian",
        "id": "19270",
        "introduction": "Himalayan is a neighbourhood indian restaurant serving authentic cuisine",
        "location": [
            52.213072,
            0.149771
        ],
        "name": "Himalayan",
        "phone": "01223566388",
        "postcode": "cb58jj",
        "pricerange": "moderate",
        "type": "restaurant"
    },
    {
        "address": "Задонский проезд, дом 24, корпус 3",
        "area": "centre",
        "food": "chinese",
        "id": "19212",
        "introduction": "У Старика ЦАО serves a variety of popular chinese dishes at their restaurant",
        "location": [
            52.201743,
            0.124843
        ],
        "name": "У Старика ЦАО",
        "phone": "01223361763",
        "postcode": "cb21db",
        "pricerange": "cheap",
        "type": "restaurant"
    },
    {
        "address": "Бескудниковский бульвар, дом 57, корпус 1",
        "area": "centre",
        "food": "european",
        "id": "19245",
        "introduction": "Башкортостан serves a variety of drinks and european dishes with influences from france spain italy and greece catering for vegetarians is also provided",
        "location": [
            52.203708,
            0.119082
        ],
        "name": "Башкортостан",
        "phone": "01223368786",
        "postcode": "cb23rh",
        "pricerange": "expensive",
        "type": "restaurant"
    },
    {
        "address": "Задонский проезд, дом 24, корпус 3",
        "area": "centre",
        "food": "italian",
        "id": "19213",
        "introduction": "the simple menu and kitchen concept at Scrocchiarella has retained its freshly made ideal and you can still watch your pizza being prepared for you",
        "location": [
            52.201743,
            0.124843
        ],
        "name": "Scrocchiarella",
        "phone": "01223324033",
        "postcode": "cb21db",
        "pricerange": "moderate",
        "type": "restaurant"
    },
    {
        "address": "Бауманская улица, дом 35/1",
        "area": "centre",
        "food": "british",
        "id": "19211",
        "introduction": "adjoining the de vere Гостиница Университетская Теремок is located at the forefront of Сеченовский переулок, дом 7А, and provides a birds eye view to take in the hustle and bustle of the busy city. Enjoy beautifully created food which is always complemented by a fine selection of wines in a truly relaxing and contemporary atmosphere",
        "location": [
            52.20103,
            0.126023
        ],
        "name": "Теремок",
        "phone": "01223337766",
        "postcode": "cb21ab",
        "pricerange": "moderate",
        "type": "restaurant"
    },
    {
        "address": "Лобненская улица, дом 10, строение 1",
        "area": "centre",
        "food": "italian",
        "id": "19229",
        "introduction": "Justa Pasta is a leading name in the uk casual dining market with over 100 restaurants across the uk. Justa Pasta is the perfect place to relax and enjoy mouthwatering risottos an extended range of hearty al forno dishes and all your favourite pastas pizzas and salads",
        "location": [
            52.209028,
            0.118296
        ],
        "name": "Justa Pasta restaurant",
        "phone": "01223364917",
        "postcode": "cb21uf",
        "pricerange": "cheap",
        "type": "restaurant"
    },
    {
        "address": "Бескудниковский бульвар, дом 40, корпус 3",
        "area": "centre",
        "food": "chinese",
        "id": "19242",
        "introduction": "ЧИХО serves a wide range of chinese and J. Z. Peking Duck dishes reflecting many different flavours and ingredients",
        "location": [
            52.204453,
            0.118693
        ],
        "name": "ЧИХО",
        "phone": "01223566188",
        "postcode": "cb23pp",
        "pricerange": "moderate",
        "type": "restaurant"
    },
    {
        "address": "Куркинское шоссе, дом 29, корпус 12",
        "area": "centre",
        "food": "modern european",
        "id": "3697",
        "introduction": "MadWineBar bar in the heart of Вокзал Мытищи is a stylish spot to enjoy food, wine, cocktails and coffee all in a vibrant atmosphere. The cocktail bar at the front is perfect for coffee and light meals in the day and cocktails in the evening. An open kitchen provides real excitement with head chef darren kiegher and his team preparing simply delicious italian food using locally sourced ingredients.",
        "location": [
            52.2002,
            0.1268
        ],
        "name": "MadWineBar",
        "phone": "01223356666",
        "postcode": "cb21aw",
        "pricerange": "moderate",
        "signature": "roasted barbary duck breast served with sweet potato wedges and mange tout with a red wine sauce",
        "type": "restaurant"
    },
    {
        "address": "Комсомольская площадь, дом 2",
        "area": "centre",
        "food": "gastropub",
        "id": "19188",
        "introduction": "the Альянс Бистро is a gastropub with a separate bar area serving a couple of good real ales and a dining room serving modern european food. There is a decked area to sit out in during the summer months",
        "location": [
            52.202449,
            0.141062
        ],
        "name": "Альянс Бистро",
        "phone": "01223306306",
        "postcode": "cb12qa",
        "pricerange": "expensive",
        "type": "restaurant"
    },
    {
        "address": "Байкальская улица, дом 31",
        "area": "west",
        "food": "indian",
        "id": "19266",
        "introduction": "Bollyfood serve a variety of indian and bangladeshi dishes and can cater for private parties of up to 110 guests upon request",
        "location": [
            52.215486,
            0.111167
        ],
        "name": "Bollyfood",
        "phone": "01223506055",
        "postcode": "cb43le",
        "pricerange": "expensive",
        "type": "restaurant"
    },
    {
        "address": "Каширское шоссе, дом 94, корпус 1",
        "area": "centre",
        "food": "modern european",
        "id": "10347",
        "introduction": "",
        "location": [
            52.20025,
            0.11659
        ],
        "name": "GOODMAN Стейк-Хаус",
        "phone": "01223259988",
        "postcode": "cb21rt",
        "pricerange": "moderate",
        "type": "restaurant"
    },
    {
        "address": "Болотниковская улица, дом 47, корпус 1",
        "area": "centre",
        "food": "indian",
        "id": "19180",
        "introduction": "Ресторан Dhaba serves a variety of indian and vegetarian dishes at their restaurant a takeaway and delivery service is also available",
        "location": [
            52.200422,
            0.135784
        ],
        "name": "Ресторан Dhaba",
        "phone": "01223323639",
        "postcode": "cb12as",
        "pricerange": "cheap",
        "type": "restaurant"
    },
    {
        "address": "Есенинский бульвар, дом 9, корпус 2",
        "area": "south",
        "food": "mexican",
        "id": "19194",
        "introduction": "BROS BURRITOS is a chain of inexpensive tex mex restaurants predominantly aimed at tourists. They serve a variety of mexican and north of the border food as well as a range of cocktails",
        "location": [
            52.190176,
            0.13699
        ],
        "name": "BROS BURRITOS",
        "phone": "01223400170",
        "postcode": "cb17dy",
        "pricerange": "expensive",
        "type": "restaurant"
    },
    {
        "address": "Ленинский проспект, дом 8, корпус 5",
        "area": "west",
        "food": "italian",
        "id": "12700",
        "introduction": "",
        "location": [
            52.21032,
            0.11367
        ],
        "name": "Итальянец",
        "phone": "01799521260",
        "postcode": "cb30ad",
        "pricerange": "moderate",
        "type": "restaurant"
    },
    {
        "address": "Бутырская улица, дом 89",
        "area": "centre",
        "food": "chinese",
        "id": "19185",
        "introduction": "Китайский сад serve a variety of popular chinese dishes at their restaurant",
        "location": [
            52.199332,
            0.138395
        ],
        "name": "Китайский сад",
        "phone": "01223367755",
        "postcode": "cb12bd",
        "pricerange": "cheap",
        "type": "restaurant"
    },
    {
        "address": "Валовая улица, дом 6",
        "area": "centre",
        "food": "lebanese",
        "id": "19221",
        "location": [
            52.195416,
            0.13114
        ],
        "name": "Ливан Хаус",
        "phone": "01462432565",
        "postcode": "cb21nt",
        "pricerange": "moderate",
        "type": "restaurant"
    },
    {
        "address": "Большая Бронная улица, дом 27/4",
        "area": "centre",
        "food": "international",
        "id": "19235",
        "introduction": "Eat & Talk serves a variety of international and vegetarian dishes and can cater for private parties of up to 40 guests upon request",
        "location": [
            52.202793,
            0.123488
        ],
        "name": "Eat & Talk",
        "phone": "01223356060",
        "postcode": "cb23ar",
        "pricerange": "moderate",
        "type": "restaurant"
    },
    {
        "address": "Варшавское шоссе, дом 14, строение 14",
        "area": "centre",
        "food": "modern european",
        "id": "19177",
        "introduction": "Бар 1929 is an award winning drinking and dining restaurant and bar in the centre of Вокзал Мытищи",
        "location": [
            52.207312,
            0.124201
        ],
        "name": "Бар 1929",
        "phone": "01223505015",
        "postcode": "cb11ln",
        "pricerange": "expensive",
        "type": "restaurant"
    },
    {
        "address": "Госпитальная площадь, дом 2, корпус 15",
        "area": "centre",
        "food": "indian",
        "id": "19182",
        "introduction": "Хаджурао serves a variety of authentic indian dishes at their fully licensed restaurant",
        "location": [
            52.199289,
            0.13974
        ],
        "name": "Хаджурао",
        "phone": "01223329432",
        "postcode": "cb12az",
        "pricerange": "expensive",
        "type": "restaurant"
    },
    {
        "address": "Ленинский проспект, дом 37А",
        "area": "west",
        "food": "indian",
        "id": "19249",
        "introduction": "Масала Хаус specialises in south indian cuisine using spices meat and vegetables from the kerala region there is also a take away option",
        "location": [
            52.212444,
            0.112823
        ],
        "name": "Масала Хаус",
        "phone": "01223366668",
        "postcode": "cb30ah",
        "pricerange": "expensive",
        "type": "restaurant"
    },
    {
        "address": "Измайловский бульвар, дом 49",
        "area": "centre",
        "food": "european",
        "id": "19227",
        "introduction": "digby trout is a chain of restaurants that are located in many of london's premier tourist attractions. they serve modern european cuisine and are open for lunch and dinner. situated in st michaels church, Ресторан Sun&Moon serves coffee sandwiches and lunch from a regularly changing menu",
        "location": [
            52.20608,
            0.118215
        ],
        "name": "Ресторан Sun&Moon",
        "phone": "01223309147",
        "postcode": "cb21su",
        "pricerange": "expensive",
        "type": "restaurant"
    },
    {
        "address": "Вешняковская улица, дом 23, строение 4",
        "area": "west",
        "food": "indian",
        "id": "19255",
        "introduction": "the Taj Masala serves an authentic kind of indian cuisine that originates from the villages of kerala where the spice trade originated",
        "location": [
            52.199012,
            0.113196
        ],
        "name": "Taj Masala",
        "phone": "01223302800",
        "postcode": "cb39ey",
        "pricerange": "expensive",
        "type": "restaurant"
    },
    {
        "address": "Малая Бронная улица, дом 27/14",
        "area": "centre",
        "food": "european",
        "id": "4607",
        "introduction": "",
        "location": [
            52.19934,
            0.12146
        ],
        "name": "Eat & Talk",
        "phone": "01223227330",
        "postcode": "cb21qa",
        "pricerange": "moderate",
        "signature": "",
        "type": "restaurant"
    },
    {
        "address": "Ленинградский проспект, дом 68, строение 23",
        "area": "west",
        "food": "indian",
        "id": "19250",
        "introduction": "Деви serve a variety of indian and Bollyfood dishes at their restaurant catering for private parties of up to 40 guests is available upon request",
        "location": [
            52.212444,
            0.112823
        ],
        "name": "Деви",
        "phone": "01223358399",
        "postcode": "cb30ah",
        "pricerange": "expensive",
        "type": "restaurant"
    },
    {
        "address": "Большая Бронная улица, дом 27/4",
        "area": "centre",
        "food": "international",
        "id": "14742",
        "introduction": "",
        "location": [
            52.20342,
            0.12171
        ],
        "name": "Ресторан Белуга",
        "phone": "08719429180",
        "postcode": "cb23dt",
        "pricerange": "moderate",
        "signature": "coconut and red chilli monkfish",
        "type": "restaurant"
    },
    {
        "address": "Ленинский проспект, дом 146",
        "area": "west",
        "food": "vietnamese",
        "id": "19248",
        "introduction": "Hang Pho serve a variety of vietnamese dishes as well as selling an assortment of tea and coffees",
        "location": [
            52.210226,
            0.115646
        ],
        "name": "Hang Pho",
        "phone": "01223362456",
        "postcode": "cb30af",
        "pricerange": "cheap",
        "type": "restaurant"
    },
    {
        "address": "Бутырская улица, дом 9, корпус 2",
        "area": "centre",
        "food": "spanish",
        "id": "12566",
        "introduction": "Ресторан Эль Асадор is a spanish tapas restaurant and bar offering over 30 tapas dishes",
        "location": [
            52.20903,
            0.1183
        ],
        "name": "Ресторан Эль Асадор",
        "phone": "01223464630",
        "postcode": "cb21uf",
        "pricerange": "moderate",
        "type": "restaurant"
    },
    {
        "address": "Большая Академическая улица, дом 65",
        "area": "north",
        "food": "italian",
        "id": "19259",
        "introduction": "Пицца 22 сантиметра serve an extensive range of pizza and italian dishes as well as some vegetarian options a takeaway and delivery service is also available",
        "location": [
            52.215311,
            0.12593
        ],
        "name": "Пицца 22 сантиметра",
        "phone": "01223351707",
        "postcode": "cb41jy",
        "pricerange": "cheap",
        "type": "restaurant"
    },
    {
        "address": "Авиамоторная улица, дом 8, строение 1",
        "area": "north",
        "food": "french",
        "id": "19264",
        "location": [
            52.213742,
            0.1242
        ],
        "name": "Ресторан Le Petit Paris Москва",
        "phone": "01223351880",
        "postcode": "cb43ax",
        "pricerange": "expensive",
        "type": "restaurant"
    },
    {
        "address": "Бакинская улица, дом 26, строение 2",
        "area": "centre",
        "food": "chinese",
        "id": "19228",
        "introduction": "Китайский ресторан Династия serves a variety of chinese dishes to eat in or take away they also offer 10 percent discount on takeaway orders",
        "location": [
            52.208055,
            0.118397
        ],
        "name": "Китайский ресторан Династия",
        "postcode": "cb21tw",
        "pricerange": "expensive",
        "type": "restaurant"
    },
    {
        "address": "Ангарская улица, дом 39",
        "area": "centre",
        "food": "japanese",
        "id": "12638",
        "introduction": "",
        "location": [
            52.203,
            0.12375
        ],
        "name": "Ресторан YOKO",
        "phone": "01223462354",
        "postcode": "cb23ar",
        "pricerange": "expensive",
        "type": "restaurant"
    },
    {
        "address": "Малая Бронная улица, дом 10, строение 1",
        "area": "centre",
        "food": "chinese",
        "id": "19186",
        "introduction": "ГУТАЙ serves great value Птичка cooked authentic chinese food with over two five dishes available from the buffet",
        "location": [
            52.204609,
            0.137976
        ],
        "name": "ГУТАЙ",
        "phone": "01223350420",
        "postcode": "cb12lf",
        "pricerange": "moderate",
        "type": "restaurant"
    },
    {
        "address": "Бескудниковский бульвар, дом 12",
        "area": "south",
        "food": "portuguese",
        "id": "12238",
        "introduction": "It's Catavina",
        "location": [
            52.19017,
            0.13699
        ],
        "name": "Catavina",
        "phone": "01223327908",
        "postcode": "cb17dy",
        "pricerange": "cheap",
        "type": "restaurant"
    },
    {
        "address": "Ленская улица, дом 15, строение 5",
        "area": "centre",
        "food": "british",
        "id": "13071",
        "introduction": "",
        "location": [
            52.1987,
            0.12578
        ],
        "name": "Гранд Кафе Dr. Живаго",
        "phone": "01223323361",
        "postcode": "cb21eg",
        "pricerange": "moderate",
        "signature": "chargrilled rib eye steak with truffle butter mixed salad and fries",
        "type": "restaurant"
    },
    {
        "address": "Большой Черкасский переулок, дом 4, строение 1",
        "area": "centre",
        "food": "british",
        "id": "19226",
        "introduction": "Вареничная №1 serve a variety of english dishes at their restaurant including full english breakfasts lunches, roast dinners and baked potatoes. a takeaway menu is also provided",
        "location": [
            52.204387,
            0.117841
        ],
        "name": "Вареничная №1",
        "phone": "01223365068",
        "postcode": "cb21sj",
        "pricerange": "moderate",
        "type": "restaurant"
    },
    {
        "address": "Бригадирский переулок, дом 3-5",
        "area": "south",
        "food": "chinese",
        "id": "19197",
        "location": [
            52.190176,
            0.13699
        ],
        "name": "Китайское кафе ЧанЧан",
        "phone": "01223244277",
        "postcode": "cb17dy",
        "pricerange": "cheap",
        "type": "restaurant"
    },
    {
        "address": "город Зеленоград, Каштановая аллея, дом 2, строение 13",
        "area": "centre",
        "food": "british",
        "id": "19224",
        "introduction": "Мари Vanna serves a variety of bistro style lunches, anglo-european a la carte evening meals, as well as teas coffees and cakes throughout the day. catering for private parties is available upon request",
        "location": [
            52.202598,
            0.118342
        ],
        "name": "Мари Vanna",
        "phone": "01223352500",
        "postcode": "cb21rg",
        "pricerange": "expensive",
        "type": "restaurant"
    },
    {
        "address": "Малая Бронная улица, дом 20, строение 1",
        "area": "centre",
        "food": "korean",
        "id": "19216",
        "introduction": "Пян-се offer a variety of korean cuisine for lunch and dinner",
        "location": [
            52.200187,
            0.126407
        ],
        "name": "Пян-се",
        "phone": "01223308681",
        "postcode": "cb21dp",
        "pricerange": "expensive",
        "type": "restaurant"
    },
    {
        "address": "Воронежская улица, дом 10",
        "area": "centre",
        "food": "turkish",
        "id": "19189",
        "introduction": "meze is a restaurant and bar that serves tasty and fresh turkish cuisine set in an informal relaxed atmosphere the bar area also serves a wide range of beers wines and spirits",
        "location": [
            52.197349,
            0.145075
        ],
        "name": "Турецкий донер",
        "postcode": "cb13nf",
        "pricerange": "expensive",
        "type": "restaurant"
    },
    {
        "address": "Беговая улица, дом 17, корпус 1",
        "area": "centre",
        "food": "asian oriental",
        "id": "19225",
        "introduction": "Рамен-Клаб serves a variety of japanese chinese vietnamese korean and malaysian dishes to eat in or take away sister restaurant to touzai",
        "location": [
            52.201423,
            0.116661
        ],
        "name": "Рамен-Клаб",
        "phone": "01223363471",
        "postcode": "cb21rq",
        "pricerange": "cheap",
        "type": "restaurant"
    },
    {
        "address": "Бауманская улица, дом 33/2, строение 1",
        "area": "west",
        "food": "italian",
        "id": "19247",
        "introduction": "Feel Italian serve a variety of italian and vegetarian dishes at their restaurant",
        "location": [
            52.210226,
            0.115646
        ],
        "name": "Feel Italian",
        "phone": "01223315232",
        "postcode": "cb30af",
        "pricerange": "cheap",
        "type": "restaurant"
    },
    {
        "address": "Кременчугская улица, дом 22",
        "area": "centre",
        "food": "asian oriental",
        "id": "19175",
        "introduction": "Ю-МЭ serves a variety of oriental and vegetarian dishes at their restaurant they also have a bar area and offer a take away service",
        "location": [
            52.207446,
            0.122788
        ],
        "name": "Ю-МЭ",
        "phone": "01223518111",
        "postcode": "cb11lh",
        "pricerange": "moderate",
        "type": "restaurant"
    },
    {
        "address": "Вяземская улица, дом 12, корпус 1",
        "area": "north",
        "food": "indian",
        "id": "19263",
        "location": [
            52.215157,
            0.125015
        ],
        "name": "Джей Хинд",
        "phone": "01223360966",
        "postcode": "cb41uy",
        "pricerange": "moderate",
        "type": "restaurant"
    },
    {
        "address": "Каширское шоссе, дом 39Б",
        "area": "centre",
        "food": "british",
        "id": "19171",
        "introduction": "Честная кухня is a restaurant cafe and bakery all rolled in to one. The restaurant upstairs is open for dinner from wednesday to saturday consisting of one menu of between three to five dishes tailored to the day the cafe and bakery offer cakes and other delicacies",
        "location": [
            52.204703,
            0.133238
        ],
        "name": "Честная кухня",
        "phone": "01223302010",
        "postcode": "cb11bg",
        "pricerange": "moderate",
        "type": "restaurant"
    },
    {
        "address": "Белореченская улица, дом 13, корпус 1",
        "area": "west",
        "food": "british",
        "id": "14810",
        "introduction": "",
        "location": [
            52.21031,
            0.11381
        ],
        "name": "Bolshoi",
        "phone": "01223353110",
        "postcode": "cb30ad",
        "pricerange": "moderate",
        "signature": "barnsley chop braised potatoes roast celeriac red cabbage and port sauce",
        "type": "restaurant"
    },
    {
        "address": "Авиамоторная улица, дом 8, строение 1",
        "area": "east",
        "food": "italian",
        "id": "19275",
        "introduction": "Pizza Hut is a large chain with restaurants nationwide offering convenience pizzas pasta and salads to eat in or take away",
        "location": [
            52.209742,
            0.146975
        ],
        "name": "Pizza Hut",
        "phone": "01223323737",
        "postcode": "cb58wr",
        "pricerange": "moderate",
        "type": "restaurant"
    },
    {
        "address": "Газгольдерная улица, дом 6",
        "area": "centre",
        "food": "chinese",
        "id": "19219",
        "location": [
            52.198696,
            0.12578
        ],
        "name": "Dragon Китайская еда",
        "phone": "01842753771",
        "postcode": "cb21eg",
        "pricerange": "cheap",
        "type": "restaurant"
    },
    {
        "address": "Кировоградская улица, дом 11",
        "area": "centre",
        "food": "asian oriental",
        "id": "19215",
        "introduction": "Ресторан SAN offers a wide variety of sushi noodles and dim sum to eat in or takeaway a Птичка delivery service is also available",
        "location": [
            52.200187,
            0.126407
        ],
        "name": "Ресторан SAN",
        "phone": "01223307581",
        "postcode": "cb21dp",
        "pricerange": "cheap",
        "type": "restaurant"
    },
    {
        "address": "Ботаническая улица, дом 29, гостиничный блок  корпуса № 1",
        "area": "centre",
        "food": "european",
        "id": "6780",
        "introduction": "",
        "location": [
            52.20951,
            0.11669
        ],
        "name": "galleria",
        "phone": "01223362054",
        "postcode": "cb21uw",
        "pricerange": "moderate",
        "signature": "poached fillets of monkfish in lemongrass with sweet red chilli cream sauce and tiger prawns with leeks and mushrooms served with rice",
        "type": "restaurant"
    },
    {
        "address": "Аэродромная улица, дом 9",
        "area": "centre",
        "food": "gastropub",
        "id": "31390",
        "introduction": "",
        "location": [
            52.204424,
            0.12046
        ],
        "name": "Пиццерия Antonio",
        "phone": "01223308871",
        "postcode": "cb23qf",
        "pricerange": "moderate",
        "signature": "wasabi spiked hamburger",
        "type": "restaurant"
    },
    {
        "address": "Алтуфьевское шоссе, дом 42Б",
        "area": "centre",
        "food": "african",
        "id": "19183",
        "introduction": "Аддис Абеба serves algerian cuisine",
        "location": [
            52.199332,
            0.138395
        ],
        "name": "Аддис Абеба",
        "phone": "01223367660",
        "postcode": "cb12bd",
        "pricerange": "expensive",
        "type": "restaurant"
    },
    {
        "address": "Волоколамское шоссе, дом 62",
        "area": "centre",
        "food": "mediterranean",
        "id": "19238",
        "introduction": "Selection serves a variety of authentic greek and mediterranean dishes at their restaurant catering for private parties of up to two five guests is available upon request",
        "location": [
            52.206098,
            0.118713
        ],
        "name": "Selection",
        "phone": "01223356354",
        "postcode": "cb23ll",
        "pricerange": "cheap",
        "type": "restaurant"
    },
    {
        "address": "Волоколамское шоссе, дом 12",
        "area": "centre",
        "food": "italian",
        "id": "29652",
        "introduction": "",
        "location": [
            52.201116,
            0.125712
        ],
        "name": "Florentini City Café",
        "phone": "01223365599",
        "postcode": "cb21ab",
        "pricerange": "cheap",
        "signature": "piccante rustica pizza, a spicy sausage salami mascarpone and roquito chilli",
        "type": "restaurant"
    },
    {
        "address": "Малая Бронная улица, дом 22, строение 2",
        "area": "east",
        "food": "indian",
        "id": "19272",
        "introduction": "Хелло, Индия! serves a variety of indian dishes to eat in or take away a delivery service is also available",
        "location": [
            52.212992,
            0.157569
        ],
        "name": "Хелло, Индия!",
        "phone": "01223577786",
        "postcode": "cb58pa",
        "pricerange": "expensive",
        "type": "restaurant"
    },
    {
        "address": "Алтайская улица, дом 10А",
        "area": "centre",
        "food": "portuguese",
        "id": "12237",
        "introduction": "",
        "location": [
            52.203,
            0.12375
        ],
        "name": "Catavina",
        "phone": "01223327908",
        "postcode": "cb23ar",
        "pricerange": "cheap",
        "type": "restaurant"
    },
    {
        "address": "Бойцовая улица, дом 17, корпус 1",
        "area": "north",
        "food": "indian",
        "id": "19257",
        "location": [
            52.213853,
            0.125509
        ],
        "name": "Тхали",
        "phone": "01733553355",
        "postcode": "cb41eh",
        "pricerange": "cheap",
        "type": "restaurant"
    },
    {
        "address": "Астраханский переулок, дом 1/15",
        "area": "north",
        "food": "chinese",
        "id": "19260",
        "introduction": "A unique treat for all lovers of Chinese cuisine. From the Spice Islands to the food streets of Beijing and the finest ocean catch.",
        "location": [
            52.215311,
            0.12593
        ],
        "name": "China Club",
        "phone": "01223568988",
        "postcode": "cb41jy",
        "pricerange": "expensive",
        "type": "restaurant"
    },
    {
        "address": "Беговая улица, дом 7",
        "area": "centre",
        "food": "spanish",
        "id": "19237",
        "introduction": "",
        "location": [
            52.206098,
            0.118713
        ],
        "name": "Па-Паэлья",
        "phone": "01223464550",
        "postcode": "cb23ll",
        "pricerange": "cheap",
        "signature": "seafood paella",
        "type": "restaurant"
    },
    {
        "address": "Волынская улица, дом 7, строение 5",
        "area": "centre",
        "food": "indian",
        "id": "19218",
        "introduction": "Curry serves a variety of indian and bangladeshi dishes at their restaurant to eat in or take away. Catering for private parties of up to 140 guests is available upon request",
        "location": [
            52.200187,
            0.126407
        ],
        "name": "Curry",
        "phone": "01223353942",
        "postcode": "cb21dp",
        "pricerange": "cheap",
        "type": "restaurant"
    },
    {
        "address": "Ангарская улица, дом 1, корпус 2",
        "area": "north",
        "food": "chinese",
        "id": "19265",
        "introduction": "the Van Wok serves a variety of traditional chinese meals including sweet and sour dishes as well as rice and noodles",
        "location": [
            52.220757,
            0.111564
        ],
        "name": "Van Wok",
        "phone": "01223350688",
        "postcode": "cb43hl",
        "pricerange": "moderate",
        "type": "restaurant"
    },
    {
        "address": "Велозаводская улица, дом 1/1, строение 6",
        "area": "west",
        "food": "indian",
        "id": "19267",
        "location": [
            52.215077,
            0.112421
        ],
        "name": "Индийская точка",
        "phone": "01223727410",
        "postcode": "cb43lf",
        "pricerange": "moderate",
        "type": "restaurant"
    },
    {
        "address": "Волоколамское шоссе, дом 63, строение 1",
        "area": "centre",
        "food": "indian",
        "id": "19220",
        "introduction": "the Даббавале serve a variety of dishes from their contemporary indian and bangladeshi menu. Catering for private parties of up to 100 guests is available upon request",
        "location": [
            52.196862,
            0.129248
        ],
        "name": "Даббавале",
        "phone": "01223354679",
        "postcode": "cb21la",
        "pricerange": "expensive",
        "type": "restaurant"
    },
    {
        "address": "Большая Бронная улица, дом 29",
        "area": "centre",
        "food": "mediterranean",
        "id": "19268",
        "location": [
            52.210013,
            0.118007
        ],
        "name": "La Maree",
        "phone": "01223362525",
        "postcode": "cb58aq",
        "pricerange": "expensive",
        "type": "restaurant"
    },
    {
        "address": "Липецкая улица, дом 54/21, строение 2",
        "area": "centre",
        "food": "chinese",
        "id": "19173",
        "introduction": "J. Z. Peking Duck comprises a french cafe on the lower level and a chinese restaurant upstairs",
        "location": [
            52.206111,
            0.132969
        ],
        "name": "J. Z. Peking Duck",
        "phone": "01223301761",
        "postcode": "cb11dg",
        "pricerange": "moderate",
        "type": "restaurant"
    },
    {
        "address": "Алтайская улица, дом 33/7",
        "area": "centre",
        "food": "seafood",
        "id": "19223",
        "introduction": "using the freshest seafood from the Рыба моя of the same name, Рыба моя restaurants serve a variety of shellfish and smoked fish all of which are complimented by an extensive wine list. Non-seafood dishes are also available",
        "location": [
            52.200693,
            0.119744
        ],
        "name": "Рыба моя",
        "phone": "01223362433",
        "postcode": "cb21qy",
        "pricerange": "expensive",
        "type": "restaurant"
    },
    {
        "address": "Литовский бульвар, дом 9А",
        "area": "centre",
        "food": "indian",
        "id": "15275",
        "introduction": "",
        "location": [
            52.20143,
            0.11664
        ],
        "name": "Shantaram",
        "phone": "01223360409",
        "postcode": "cb21rq",
        "pricerange": "cheap",
        "signature": "chicken tikka masala",
        "type": "restaurant"
    },
    {
        "address": "Астраханский переулок, дом 5/9",
        "area": "centre",
        "food": "italian",
        "id": "19269",
        "introduction": "the simple menu and kitchen concept at Scrocchiarella has retained its freshly made ideal, and you can still watch your pizza being prepared for you. This branch has live jazz music",
        "location": [
            52.208252,
            0.119957
        ],
        "name": "Scrocchiarella",
        "phone": "01223324033",
        "postcode": "cb58ba",
        "pricerange": "moderate",
        "type": "restaurant"
    },
    {
        "address": "Большая Бронная улица, дом 2/6",
        "area": "west",
        "food": "thai",
        "id": "19256",
        "introduction": "Neon Monkey serves a variety of thai dishes at their restaurant catering for private parties of up to 40 guests is available upon request",
        "location": [
            52.199012,
            0.113196
        ],
        "name": "Neon Monkey",
        "phone": "01223323178",
        "postcode": "cb39ey",
        "pricerange": "expensive",
        "type": "restaurant"
    },
    {
        "address": "Коктебельская улица, дом 11, строение 3",
        "area": "north",
        "id": "19262",
        "introduction": "located in Вокзал Мытищи city football club, Mesto 20/1 serve a variety of english and italian dishes as well as offering a selection of vegetarian options catering for corporate events and private parties of up to 100 guests is available upon request.",
        "location": [
            52.215157,
            0.125015
        ],
        "name": "Mesto 20/1",
        "phone": "01223363270",
        "postcode": "cb41uy",
        "pricerange": "expensive",
        "food": "european",
        "type": "restaurant"
    },
    {
        "address": "Азовская улица, дом 4",
        "area": "north",
        "food": "asian oriental",
        "id": "19261",
        "introduction": "Цветение сакуры serve vietnamese chinese and thai cuisine to eat in or take away",
        "location": [
            52.218164,
            0.143209
        ],
        "name": "Цветение сакуры",
        "phone": "01223356555",
        "postcode": "cb41nl",
        "pricerange": "expensive",
        "type": "restaurant"
    },
    {
        "address": "Измайловский бульвар, дом 30",
        "area": "south",
        "food": "chinese",
        "id": "19246",
        "introduction": "Dragon Китайская еда resturant cook from fresh ingredients. they specialise in sichuan and hunan dishes",
        "location": [
            52.189484,
            0.135465
        ],
        "name": "Dragon Китайская еда",
        "phone": "01223354755",
        "postcode": "cb28nx",
        "pricerange": "expensive",
        "type": "restaurant"
    },
    {
        "address": "Бригадирский переулок, дом 3-5",
        "area": "south",
        "food": "italian",
        "id": "19195",
        "introduction": "Il Forno has a traditional 1950s new york feel to it with its original family photographs, traditional wooden furniture and period music. They serve a wide range of authentic american and italian dishes.",
        "location": [
            52.190176,
            0.13699
        ],
        "name": "Il Forno",
        "phone": "01223412430",
        "postcode": "cb17dy",
        "pricerange": "expensive",
        "type": "restaurant"
    },
    {
        "address": "Загородное шоссе, дом 2, строение 1Б",
        "area": "west",
        "food": "british",
        "id": "7492",
        "introduction": "Critically acclaimed food in luxurious and stylish surroundings, overlooking the hotels lush gardens.",
        "location": [
            52.22414,
            0.09194
        ],
        "name": "Матрёшка",
        "phone": "01223277977",
        "postcode": "cb30lx",
        "pricerange": "expensive",
        "signature": "panfried fillet of brill tempura of langoustine crushed garden peas shellfish basil nage",
        "type": "restaurant"
    },
    {
        "address": "Ибрагимова улица, дом 30",
        "area": "west",
        "food": "indian",
        "id": "19254",
        "introduction": "indian house serve a variety of indian dishes to eat in or take away they also have a selection of english dishes on their menu",
        "location": [
            52.199012,
            0.113196
        ],
        "name": "Дарбарс",
        "phone": "01223461661",
        "postcode": "cb39ey",
        "pricerange": "expensive",
        "type": "restaurant"
    },
    {
        "address": "Ленинский проспект, дом 17",
        "area": "west",
        "food": "european",
        "id": "19252",
        "introduction": "located in the Meatloaf hotel, this restaurant serves a variety of european and vegetarian dishes and can cater for private parties of up to 20 guests upon request.",
        "location": [
            52.217736,
            0.102505
        ],
        "name": "Meatloaf",
        "phone": "01223355166",
        "postcode": "cb30dq",
        "pricerange": "expensive",
        "type": "restaurant"
    },
    {
        "address": "Балаклавский проспект, дом 48, корпус 1",
        "area": "east",
        "food": "british",
        "id": "19271",
        "introduction": "located in Ресторан Русская Трапеза this restaurant serves a variety of english and vegetarian dishes from their a la carte and carvery menu. They also have a bar area",
        "location": [
            52.212992,
            0.157569
        ],
        "name": "Ресторан Русская Трапеза",
        "phone": "01223241387",
        "postcode": "cb58pa",
        "pricerange": "expensive",
        "type": "restaurant"
    },
    {
        "address": "город Щербинка, Первомайская улица, дом 10",
        "area": "north",
        "food": "chinese",
        "id": "19258",
        "introduction": "Chinatown serves a variety of chinese dishes at their restaurant and can cater for private parties of up to five five guests upon request",
        "location": [
            52.214531,
            0.127298
        ],
        "name": "Chinatown",
        "phone": "01223366552",
        "postcode": "cb41ep",
        "pricerange": "expensive",
        "type": "restaurant"
    },
    {
        "address": "Ленинский проспект, дом 158",
        "area": "centre",
        "food": "modern european",
        "id": "7236",
        "introduction": "",
        "location": [
            52.20984,
            0.11793
        ],
        "name": "Торро Гриль",
        "phone": "01223307030",
        "postcode": "cb58aq",
        "pricerange": "cheap",
        "signature": "lobster mac and cheese",
        "type": "restaurant"
    },
    {
        "address": "Бескудниковский проезд, дом 2, корпус 2",
        "area": "centre",
        "food": "italian",
        "id": "19176",
        "introduction": "PIZZA VOLANTE serve a variety of drinks as well as italian dishes such as pasta ciabatta and salads",
        "location": [
            52.207312,
            0.124201
        ],
        "name": "PIZZA VOLANTE",
        "phone": "01223355711",
        "postcode": "cb11ln",
        "pricerange": "expensive",
        "type": "restaurant"
    },
    {
        "address": "Братиславская улица, дом 6, помещение 360",
        "area": "centre",
        "food": "turkish",
        "id": "19232",
        "introduction": "La Bottega Siciliana is a basement restaurant that serves a variety of turkish and vegetarian dishes and cater for private parties of up to 80 guests upon request",
        "location": [
            52.209632,
            0.117213
        ],
        "name": "La Bottega Siciliana",
        "phone": "01223362372",
        "postcode": "cb21uj",
        "pricerange": "moderate",
        "type": "restaurant"
    },
    {
        "address": "Бутырская улица, дом 7",
        "area": "centre",
        "food": "indian",
        "id": "19187",
        "location": [
            52.204609,
            0.137976
        ],
        "name": "Масала Хаус",
        "phone": "01223355012",
        "postcode": "cb12lf",
        "pricerange": "expensive",
        "type": "restaurant"
    },
    {
        "address": "Бакинская улица, дом 29",
        "area": "centre",
        "food": "chinese",
        "id": "19174",
        "introduction": "Кирин is a buffet restaurant and bar serving a variety of dishes for lunch and dinner there is also a takeaway menu available",
        "location": [
            52.207702,
            0.133982
        ],
        "name": "Кирин",
        "phone": "01223357187",
        "postcode": "cb11hr",
        "pricerange": "expensive",
        "type": "restaurant"
    },
    {
        "address": "Большой Староданиловский переулок, дом 5",
        "area": "centre",
        "food": "gastropub",
        "id": "12482",
        "introduction": "slug lettuce is a premium high street bar that serves a wide range of restaurant quality food to suit all occasions and appetites.",
        "location": [
            52.20683,
            0.1192
        ],
        "name": "Гастробар Беловъ",
        "postcode": "cb23ju",
        "pricerange": "expensive",
        "type": "restaurant"
    },
    {
        "address": "5 Jordans Yard бульвар Энтузиастов, дом 2",
        "area": "centre",
        "food": "indian",
        "id": "19231",
        "introduction": "Джаганнат serve a variety of indian dishes to eat in or take away catering for private parties of up to 40 guests is available upon request",
        "location": [
            52.209003,
            0.118661
        ],
        "name": "Джаганнат",
        "phone": "01223324351",
        "postcode": "cb21ug",
        "pricerange": "expensive",
        "type": "restaurant"
    },
    {
        "address": "Ленинградское шоссе, дом 39, строение 1",
        "area": "west",
        "food": "british",
        "id": "19251",
        "introduction": "",
        "location": [
            52.214201,
            0.108588
        ],
        "name": "Ресторан Обломов",
        "phone": "01223276182",
        "postcode": "cb30df",
        "pricerange": "expensive",
        "type": "restaurant"
    },
    {
        "address": "Керченская улица, дом 1А, корпус 3",
        "area": "centre",
        "food": "indian",
        "id": "19184",
        "introduction": "Curry Up is the most popular indian restaurant in Вокзал Мытищи serving good indian cuisine including all the usual dishes",
        "location": [
            52.199332,
            0.138395
        ],
        "name": "Curry Up",
        "phone": "01223351027",
        "postcode": "cb12bd",
        "pricerange": "expensive",
        "type": "restaurant"
    },
    {
        "address": "Дурасовский переулок, дом 7",
        "area": "east",
        "food": "gastropub",
        "id": "19190",
        "location": [
            52.196967,
            0.149286
        ],
        "name": "Hugo bistro&bar",
        "phone": "01223247877",
        "postcode": "cb13nl",
        "pricerange": "expensive",
        "type": "restaurant"
    },
    {
        "address": "Алтуфьевское шоссе, дом 2",
        "area": "east",
        "food": "indian",
        "id": "19274",
        "introduction": "Москва-Дели serves traditional indian cuisine accomapnied by a broad wine list with beers and spirits also available",
        "location": [
            52.211144,
            0.163247
        ],
        "name": "Москва-Дели",
        "phone": "01223244955",
        "postcode": "cb58rg",
        "pricerange": "moderate",
        "type": "restaurant"
    },
    {
        "address": "Алтуфьевское шоссе, дом 56",
        "area": "centre",
        "food": "chinese",
        "id": "19172",
        "location": [
            52.206111,
            0.132969
        ],
        "name": "hk fusion",
        "phone": "01223355909",
        "postcode": "cb11dg",
        "pricerange": "expensive",
        "type": "restaurant"
    },
    {
        "address": "Волоколамское шоссе, дом 30, корпус 1",
        "area": "centre",
        "food": "turkish",
        "id": "19178",
        "introduction": "Pandeli Grill serve a variety of turkish dishes including kebabs in truly authentic surroundings.",
        "location": [
            52.207312,
            0.124201
        ],
        "name": "Pandeli Grill",
        "phone": "01223500005",
        "postcode": "cb11ln",
        "pricerange": "moderate",
        "type": "restaurant"
    },
    {
        "address": "Задонский проезд, дом 24, корпус 3",
        "area": "centre",
        "food": "north american",
        "id": "19209",
        "introduction": "Бургерная #FARШ has a trendy interior and, although a bit more expensive than the average high street burger joint, the delicious burgers and other dishes are huge and freshly prepared with large side orders to match. Catering for vegetarians is provided",
        "location": [
            52.20103,
            0.126023
        ],
        "name": "Бургерная #FARШ",
        "phone": "01223312598",
        "postcode": "cb21ab",
        "pricerange": "expensive",
        "type": "restaurant"
    },
    {
        "address": "Касимовская улица, 31«а»",
        "area": "centre",
        "food": "italian",
        "id": "19239",
        "introduction": "Mi Piace serves an extensive range of pizzas and italian dishes including pasta as well as a selection of beverages. Catering for private parties of up to 80 guests is available upon request",
        "location": [
            52.205442,
            0.119706
        ],
        "name": "Mi Piace",
        "phone": "01223350106",
        "postcode": "cb23nj",
        "pricerange": "expensive",
        "type": "restaurant"
    },
    {
        "address": "Анадырский проезд, дом 55",
        "area": "centre",
        "food": "british",
        "id": "6941",
        "introduction": "",
        "location": [
            52.20439,
            0.11784
        ],
        "name": "CEBEREVER",
        "phone": "01223359506",
        "postcode": "cb21sj",
        "pricerange": "expensive",
        "signature": "lamb barnsley chop potato and garlic bake greens and gravy",
        "type": "restaurant"
    },
    {
        "address": "Бережковская набережная, дом 8",
        "area": "centre",
        "food": "asian oriental",
        "id": "19181",
        "introduction": "Cutfish bistro is a noodle bar serving a wide variety of chinese thai cuisine for lunch and dinner",
        "location": [
            52.200422,
            0.135784
        ],
        "name": "Cutfish bistro",
        "phone": "01223311911",
        "postcode": "cb12as",
        "pricerange": "expensive",
        "type": "restaurant"
    },
    {
        "address": "Бутырская улица, дом 79, секция Б",
        "area": "east",
        "food": "indian",
        "id": "19198",
        "location": [
            52.186739,
            0.173048
        ],
        "name": "Ресторан Индика",
        "phone": "01223249955",
        "postcode": "cb19hx",
        "pricerange": "expensive",
        "type": "restaurant"
    },
    {
        "address": "Бутырская улица, дом 11",
        "area": "centre",
        "food": "mediterranean",
        "id": "19217",
        "introduction": "Assunta Madre serves traditional mediterranean cuisine accompanied by an extensive wine list with beers and spirits also available",
        "location": [
            52.200187,
            0.126407
        ],
        "name": "Assunta Madre",
        "phone": "01223307581",
        "postcode": "cb21dp",
        "pricerange": "expensive",
        "type": "restaurant"
    },
    {
        "address": "Ленинский проспект, дом 127",
        "area": "centre",
        "food": "british",
        "id": "508",
        "introduction": "",
        "location": [
            52.21251,
            0.12774
        ],
        "name": "Корчма Тарас Бульба",
        "phone": "01223369299",
        "postcode": "cb41ha",
        "pricerange": "expensive",
        "signature": "seared scallops with truffle apple and celeriac",
        "type": "restaurant"
    },
    {
        "address": "бульвар Энтузиастов, дом 2",
        "area": "centre",
        "food": "french",
        "id": "19230",
        "introduction": "Жеральдин is a modern french bistro offering some of the classic and simple favourites of french cuisine",
        "location": [
            52.209028,
            0.118296
        ],
        "name": "Жеральдин",
        "phone": "01223311053",
        "postcode": "cb21uf",
        "pricerange": "expensive",
        "type": "restaurant"
    },
    {
        "address": "Ленинградский проспект, дом 37, корпус 8",
        "area": "centre",
        "food": "italian",
        "id": "19234",
        "introduction": "Бенвенуто is a chain of cafe style restaurants that offer a wide selection of meals and snacks to suit any time of the day including an extensive breakfast menu and choice of hot or cold drinks",
        "location": [
            52.209632,
            0.117213
        ],
        "name": "Бенвенуто",
        "phone": "01223448620",
        "postcode": "cb21uj",
        "pricerange": "expensive",
        "type": "restaurant"
    },
    {
        "address": "Боровское шоссе, дом 37, корпус 1",
        "area": "centre",
        "food": "chinese",
        "id": "19222",
        "introduction": "Китайский ресторан Чиндао offers a wide variety of traditional chinese cuisine for lunch or dinner with wifi access and a television screen in the basement",
        "location": [
            52.197154,
            0.129511
        ],
        "name": "Китайский ресторан Чиндао",
        "phone": "01223358899",
        "postcode": "cb21nw",
        "pricerange": "expensive",
        "type": "restaurant"
    },
    {
        "address": "Воронцовский переулок, дом 5/7, строение 2",
        "area": "centre",
        "food": "thai",
        "id": "19236",
        "introduction": "Харбин serve a variety of authentic dishes to eat in or take away",
        "location": [
            52.206504,
            0.119157
        ],
        "name": "Харбин",
        "phone": "01223354382",
        "postcode": "cb23jx",
        "pricerange": "expensive",
        "type": "restaurant"
    }
]
